[
{"label":"Acadia National Park", "latitude":"44.35", "longitude":"-68.21", "type":"NATIONAL_PARK" },
{"label":"National Park of American Samoa", "latitude":"-14.25", "longitude":"-170.68", "type":"NATIONAL_PARK" },
{"label":"Arches National Park", "latitude":"38.68", "longitude":"-109.57", "type":"NATIONAL_PARK" },
{"label":"Badlands National Park", "latitude":"43.75", "longitude":"-102.50", "type":"NATIONAL_PARK" },
{"label":"Big Bend National Park", "latitude":"29.25", "longitude":"-103.25", "type":"NATIONAL_PARK" },
{"label":"Biscayne National Park", "latitude":"25.65", "longitude":"-80.08", "type":"NATIONAL_PARK" },
{"label":"Black Canyon of the Gunnison National Park", "latitude":"38.57", "longitude":"-107.72", "type":"NATIONAL_PARK" },
{"label":"Bryce Canyon National Park", "latitude":"37.57", "longitude":"-112.18", "type":"NATIONAL_PARK" },
{"label":"Canyonlands National Park", "latitude":"38.2", "longitude":"-109.93", "type":"NATIONAL_PARK" },
{"label":"Capitol Reef National Park", "latitude":"38.20", "longitude":"-111.17", "type":"NATIONAL_PARK" },
{"label":"Carlsbad Caverns National Park", "latitude":"32.17", "longitude":"-104.44", "type":"NATIONAL_PARK" },
{"label":"Channel Islands National Park", "latitude":"34.01", "longitude":"-119.42", "type":"NATIONAL_PARK" },
{"label":"Congaree National Park", "latitude":"33.78", "longitude":"-80.78", "type":"NATIONAL_PARK" },
{"label":"Crater Lake National Park", "latitude":"42.94", "longitude":"-122.1", "type":"NATIONAL_PARK" },
{"label":"Cuyahoga Valley National Park", "latitude":"41.24", "longitude":"-81.55", "type":"NATIONAL_PARK" },
{"label":"Death Valley National Park", "latitude":"36.24", "longitude":"-116.82", "type":"NATIONAL_PARK" },
{"label":"Denali National Park and Preserve", "latitude":"63.33", "longitude":"-150.50", "type":"NATIONAL_PARK" },
{"label":"Dry Tortugas National Park", "latitude":"24.63", "longitude":"-82.87", "type":"NATIONAL_PARK" },
{"label":"Everglades National Park", "latitude":"25.32", "longitude":"-80.93", "type":"NATIONAL_PARK" },
{"label":"Gates of the Arctic National Park and Preserve", "latitude":"67.78", "longitude":"-153.30", "type":"NATIONAL_PARK" },
{"label":"Gateway Arch National Park", "latitude":"38.63", "longitude":"-90.19", "type":"NATIONAL_PARK" },
{"label":"Glacier National Park (U.S.)", "latitude":"48.80", "longitude":"-114.00", "type":"NATIONAL_PARK" },
{"label":"Glacier Bay National Park and Preserve", "latitude":"58.50", "longitude":"-137.00", "type":"NATIONAL_PARK" },
{"label":"Grand Canyon National Park", "latitude":"36.06", "longitude":"-112.14", "type":"NATIONAL_PARK" },
{"label":"Grand Teton National Park", "latitude":"43.73", "longitude":"-110.80", "type":"NATIONAL_PARK" },
{"label":"Great Basin National Park", "latitude":"38.98", "longitude":"-114.30", "type":"NATIONAL_PARK" },
{"label":"Great Sand Dunes National Park and Preserve", "latitude":"37.73", "longitude":"-105.51", "type":"NATIONAL_PARK" },
{"label":"Great Smoky Mountains National Park", "latitude":"35.68", "longitude":"-83.53", "type":"NATIONAL_PARK" },
{"label":"Guadalupe Mountains National Park", "latitude":"31.92", "longitude":"-104.87", "type":"NATIONAL_PARK" },
{"label":"Haleakal National Park", "latitude":"20.72", "longitude":"-156.17", "type":"NATIONAL_PARK" },
{"label":"Hawaii Volcanoes National Park", "latitude":"19.38", "longitude":"-155.20", "type":"NATIONAL_PARK" },
{"label":"Hot Springs National Park", "latitude":"34.51", "longitude":"-93.05", "type":"NATIONAL_PARK" },
{"label":"Isle Royale National Park", "latitude":"48.10", "longitude":"-88.55", "type":"NATIONAL_PARK" },
{"label":"Joshua Tree National Park", "latitude":"33.79", "longitude":"-115.90", "type":"NATIONAL_PARK" },
{"label":"Katmai National Park and Preserve", "latitude":"58.50", "longitude":"-155.00", "type":"NATIONAL_PARK" },
{"label":"Kenai Fjords National Park", "latitude":"59.92", "longitude":"-149.65", "type":"NATIONAL_PARK" },
{"label":"Kings Canyon National Park", "latitude":"36.80", "longitude":"-118.55", "type":"NATIONAL_PARK" },
{"label":"Kobuk Valley National Park", "latitude":"67.55", "longitude":"-159.28", "type":"NATIONAL_PARK" },
{"label":"Lake Clark National Park and Preserve", "latitude":"60.97", "longitude":"-153.42", "type":"NATIONAL_PARK" },
{"label":"Lassen Volcanic National Park", "latitude":"40.49", "longitude":"-121.51", "type":"NATIONAL_PARK" },
{"label":"Mammoth Cave National Park", "latitude":"37.18", "longitude":"-86.10", "type":"NATIONAL_PARK" },
{"label":"Mesa Verde National Park", "latitude":"37.18", "longitude":"-108.49", "type":"NATIONAL_PARK" },
{"label":"Mount Rainier National Park", "latitude":"46.85", "longitude":"-121.75", "type":"NATIONAL_PARK" },
{"label":"North Cascades National Park", "latitude":"48.70", "longitude":"-121.20", "type":"NATIONAL_PARK" },
{"label":"Olympic National Park", "latitude":"47.97", "longitude":"-123.50", "type":"NATIONAL_PARK" },
{"label":"Petrified Forest National Park", "latitude":"35.07", "longitude":"-109.78", "type":"NATIONAL_PARK" },
{"label":"Pinnacles National Park", "latitude":"36.48", "longitude":"-121.16", "type":"NATIONAL_PARK" },
{"label":"Redwood National and State Parks", "latitude":"41.30", "longitude":"-124.00", "type":"NATIONAL_PARK" },
{"label":"Rocky Mountain National Park", "latitude":"40.40", "longitude":"-105.58", "type":"NATIONAL_PARK" },
{"label":"Saguaro National Park", "latitude":"32.25", "longitude":"-110.50", "type":"NATIONAL_PARK" },
{"label":"Sequoia National Park", "latitude":"36.43", "longitude":"-118.68", "type":"NATIONAL_PARK" },
{"label":"Shenandoah National Park", "latitude":"38.53", "longitude":"-78.35", "type":"NATIONAL_PARK" },
{"label":"Theodore Roosevelt National Park", "latitude":"46.97", "longitude":"-103.45", "type":"NATIONAL_PARK" },
{"label":"Virgin Islands National Park", "latitude":"18.33", "longitude":"-64.73", "type":"NATIONAL_PARK" },
{"label":"Voyageurs National Park", "latitude":"48.50", "longitude":"-92.88", "type":"NATIONAL_PARK" },
{"label":"Wind Cave National Park", "latitude":"43.57", "longitude":"-103.48", "type":"NATIONAL_PARK" },
{"label":"WrangellSt. Elias National Park and Preserve", "latitude":"61.00", "longitude":"-142.00", "type":"NATIONAL_PARK" },
{"label":"Yellowstone National Park", "latitude":"44.60", "longitude":"-110.50", "type":"NATIONAL_PARK" },
{"label":"Yosemite National Park", "latitude":"37.83", "longitude":"-119.50", "type":"NATIONAL_PARK" },
{"label":"Zion National Park", "latitude":"37.30", "longitude":"-113.05", "type":"NATIONAL_PARK" }
]